{
"type": "FeatureCollection",
"name": "markersReg",
"crs": { "type": "name", "properties": { "name": "urn:ogc:def:crs:OGC:1.3:CRS84" } },
"features": [
{ "type": "Feature", "properties": { "PROVINCE": "Khemisset", "NAME": "20 Aout", "TYPE": "MJ", "TYPE_FULL": "Maison  de  Jeunes", "COMMUNE": "Khemisset", "U_R": "U", "DISTRICT": "Attakadom", "LAT": 33.824399, "LON": -6.0754, "LATLON": "33.824399, -6.075400", "ADRESSE_FULL": "Attakadom , Av H,Fatouaki", "ADRESSE": "Av H,Fatouaki", "PROPRIETARY_MJS": "O", "OUVERT_PUB": "O" }, "geometry": { "type": "Point", "coordinates": [ -6.0754, 33.824399 ] } },
{ "type": "Feature", "properties": { "PROVINCE": "Khemisset", "NAME": "Mohammed Ezzarktouni", "TYPE": "MJ", "TYPE_FULL": "Maison  de  Jeunes", "COMMUNE": "Khemisset", "U_R": "U", "DISTRICT": "Attakadom", "LAT": 33.825326, "LON": -6.080722, "LATLON": "33.825326, -6.080722", "ADRESSE_FULL": "Attakadom , Rue Badr", "ADRESSE": "Rue Badr", "PROPRIETARY_MJS": "O", "OUVERT_PUB": "O" }, "geometry": { "type": "Point", "coordinates": [ -6.080722, 33.825326 ] } },
{ "type": "Feature", "properties": { "PROVINCE": "Khemisset", "NAME": "Ait Mimoun", "TYPE": "MJ", "TYPE_FULL": "Maison  de  Jeunes", "COMMUNE": "Ait Mimoune", "U_R": "R", "DISTRICT": "centre", "LAT": 33.699072, "LON": -5.841968, "LATLON": "33.699072, -5.841968", "ADRESSE_FULL": "centre", "ADRESSE": null, "PROPRIETARY_MJS": "N", "OUVERT_PUB": "O" }, "geometry": { "type": "Point", "coordinates": [ -5.841968, 33.699072 ] } },
{ "type": "Feature", "properties": { "PROVINCE": "Khemisset", "NAME": "Ait Yadin", "TYPE": "MJ", "TYPE_FULL": "Maison  de  Jeunes", "COMMUNE": "Ait Yadine", "U_R": "R", "DISTRICT": "centre", "LAT": 33.960738, "LON": -6.026798, "LATLON": "33.960738, -6.026798", "ADRESSE_FULL": "centre", "ADRESSE": null, "PROPRIETARY_MJS": "N", "OUVERT_PUB": "O" }, "geometry": { "type": "Point", "coordinates": [ -6.026798, 33.960738 ] } },
{ "type": "Feature", "properties": { "PROVINCE": "Khemisset", "NAME": "Abdessalam Elmssari Elkoraichi", "TYPE": "MJ", "TYPE_FULL": "Maison  de  Jeunes", "COMMUNE": "Tiflet", "U_R": "U", "DISTRICT": "Farah", "LAT": 33.898139, "LON": -6.332885, "LATLON": "33.898139, -6.332885", "ADRESSE_FULL": "Farah , Av , prince moulay Abdelleh", "ADRESSE": "Av , prince moulay Abdelleh", "PROPRIETARY_MJS": "N", "OUVERT_PUB": "O" }, "geometry": { "type": "Point", "coordinates": [ -6.332885, 33.898139 ] } },
{ "type": "Feature", "properties": { "PROVINCE": "Khemisset", "NAME": "09-Jul", "TYPE": "MJ", "TYPE_FULL": "Maison  de  Jeunes", "COMMUNE": "Tiflet", "U_R": "U", "DISTRICT": "Hay jdid", "LAT": 33.900873, "LON": -6.341283, "LATLON": "33.900873, -6.341283", "ADRESSE_FULL": "Hay jdid , Av la marche verte", "ADRESSE": "Av la marche verte", "PROPRIETARY_MJS": "O", "OUVERT_PUB": "O" }, "geometry": { "type": "Point", "coordinates": [ -6.341283, 33.900873 ] } },
{ "type": "Feature", "properties": { "PROVINCE": "Khemisset", "NAME": "Khmiss sidi Yahya", "TYPE": "MJ", "TYPE_FULL": "Maison  de  Jeunes", "COMMUNE": "Khemis Sidi Yahya", "U_R": "R", "DISTRICT": "centre", "LAT": 33.801484, "LON": -6.270856, "LATLON": "33.801484, -6.270856", "ADRESSE_FULL": "centre", "ADRESSE": null, "PROPRIETARY_MJS": "N", "OUVERT_PUB": "O" }, "geometry": { "type": "Point", "coordinates": [ -6.270856, 33.801484 ] } },
{ "type": "Feature", "properties": { "PROVINCE": "Khemisset", "NAME": "Mkam Ettolba", "TYPE": "MJ", "TYPE_FULL": "Maison  de  Jeunes", "COMMUNE": "M'Qam Tolba", "U_R": "R", "DISTRICT": "centre", "LAT": 33.939306, "LON": -6.257019, "LATLON": "33.939306, -6.257019", "ADRESSE_FULL": "centre", "ADRESSE": null, "PROPRIETARY_MJS": "N", "OUVERT_PUB": "O" }, "geometry": { "type": "Point", "coordinates": [ -6.257019, 33.939306 ] } },
{ "type": "Feature", "properties": { "PROVINCE": "Khemisset", "NAME": "sidi Allal Elbahraoui", "TYPE": "MJ", "TYPE_FULL": "Maison  de  Jeunes", "COMMUNE": "Sidi Allal El Bahraoui", "U_R": "U", "DISTRICT": "Pam", "LAT": 34.001352, "LON": -6.540556, "LATLON": "34.001352, -6.540556", "ADRESSE_FULL": "Pam", "ADRESSE": null, "PROPRIETARY_MJS": "N", "OUVERT_PUB": "O" }, "geometry": { "type": "Point", "coordinates": [ -6.540556, 34.001352 ] } },
{ "type": "Feature", "properties": { "PROVINCE": "Khemisset", "NAME": "Oulmess", "TYPE": "MJ", "TYPE_FULL": "Maison  de  Jeunes", "COMMUNE": "Oulmess", "U_R": "U", "DISTRICT": "centre", "LAT": 33.4305, "LON": -6.0017, "LATLON": "33.4305,-6.0017", "ADRESSE_FULL": "centre", "ADRESSE": null, "PROPRIETARY_MJS": "N", "OUVERT_PUB": "O" }, "geometry": { "type": "Point", "coordinates": [ -6.0017, 33.4305 ] } },
{ "type": "Feature", "properties": { "PROVINCE": "Khemisset", "NAME": "16-Nov", "TYPE": "MJ", "TYPE_FULL": "Maison  de  Jeunes", "COMMUNE": "Rommani", "U_R": "U", "DISTRICT": "administratif", "LAT": 33.5155, "LON": -6.601, "LATLON": "33.5155,-6.6010", "ADRESSE_FULL": "administratif", "ADRESSE": null, "PROPRIETARY_MJS": "O", "OUVERT_PUB": "O" }, "geometry": { "type": "Point", "coordinates": [ -6.601, 33.5155 ] } },
{ "type": "Feature", "properties": { "PROVINCE": "Khemisset", "NAME": "Ain Essbite", "TYPE": "MJ", "TYPE_FULL": "Maison  de  Jeunes", "COMMUNE": "Ain Essbite", "U_R": "R", "DISTRICT": "centre", "LAT": 33.5584, "LON": -6.525, "LATLON": "33.5584,-6.5250", "ADRESSE_FULL": "centre", "ADRESSE": null, "PROPRIETARY_MJS": "N", "OUVERT_PUB": "N" }, "geometry": { "type": "Point", "coordinates": [ -6.525, 33.5584 ] } },
{ "type": "Feature", "properties": { "PROVINCE": "Khemisset", "NAME": "Had Lbrachoua", "TYPE": "MJ", "TYPE_FULL": "Maison  de  Jeunes", "COMMUNE": "Brachoua", "U_R": "R", "DISTRICT": "centre", "LAT": 33.687843, "LON": -6.633785, "LATLON": "33.687843, -6.633785", "ADRESSE_FULL": "centre", "ADRESSE": null, "PROPRIETARY_MJS": "N", "OUVERT_PUB": "N" }, "geometry": { "type": "Point", "coordinates": [ -6.633785, 33.687843 ] } },
{ "type": "Feature", "properties": { "PROVINCE": "Khemisset", "NAME": "Essalam", "TYPE": "CSJ", "TYPE_FULL": "Centre  au  service de  le  Jeunesse", "COMMUNE": "Khemisset", "U_R": "U", "DISTRICT": "Essalam", "LAT": 33.8253, "LON": -6.0561, "LATLON": "33.8253,-6.0561", "ADRESSE_FULL": "Essalam", "ADRESSE": null, "PROPRIETARY_MJS": "N", "OUVERT_PUB": "O" }, "geometry": { "type": "Point", "coordinates": [ -6.0561, 33.8253 ] } },
{ "type": "Feature", "properties": { "PROVINCE": "Khemisset", "NAME": "Elatlass", "TYPE": "CA", "TYPE_FULL": "Centre  d'Accueil", "COMMUNE": "Khemisset", "U_R": "U", "DISTRICT": "Attakadom", "LAT": 33.8239, "LON": -6.0741, "LATLON": "33.8239,-6.0741", "ADRESSE_FULL": "Attakadom", "ADRESSE": null, "PROPRIETARY_MJS": "O", "OUVERT_PUB": "O" }, "geometry": { "type": "Point", "coordinates": [ -6.0741, 33.8239 ] } },
{ "type": "Feature", "properties": { "PROVINCE": "Khemisset", "NAME": "al aman ", "TYPE": "GE", "TYPE_FULL": "Garderie  d'Enfants", "COMMUNE": "Khemisset", "U_R": "U ", "DISTRICT": " administratif", "LAT": 33.8229, "LON": -6.1295, "LATLON": "33.8229,-6.1295", "ADRESSE_FULL": "administratif , quartier administratif", "ADRESSE": "quartier administratif", "PROPRIETARY_MJS": "O", "OUVERT_PUB": "O " }, "geometry": { "type": "Point", "coordinates": [ -6.1295, 33.8229 ] } },
{ "type": "Feature", "properties": { "PROVINCE": "Khemisset", "NAME": "khmisse sidi yahya", "TYPE": "GE", "TYPE_FULL": "Garderie  d'Enfants", "COMMUNE": "Khemis Sidi Yahya", "U_R": "R", "DISTRICT": "centre", "LAT": 33.813237, "LON": -6.271397, "LATLON": "33.813237, -6.271397", "ADRESSE_FULL": "centre , khmisse sidi yahya", "ADRESSE": "khmisse sidi yahya", "PROPRIETARY_MJS": "N", "OUVERT_PUB": "O" }, "geometry": { "type": "Point", "coordinates": [ -6.271397, 33.813237 ] } },
{ "type": "Feature", "properties": { "PROVINCE": "Khemisset", "NAME": "el hay el jadid", "TYPE": "CFP", "TYPE_FULL": "Centre  de  Formation Proféssionelle", "COMMUNE": "Tiflet", "U_R": "U", "DISTRICT": null, "LAT": 33.887477, "LON": -6.32811, "LATLON": "33.887477, -6.328110", "ADRESSE_FULL": "rue marche verte", "ADRESSE": "rue marche verte", "PROPRIETARY_MJS": "O", "OUVERT_PUB": "O" }, "geometry": { "type": "Point", "coordinates": [ -6.32811, 33.887477 ] } },
{ "type": "Feature", "properties": { "PROVINCE": "Khemisset", "NAME": "had brachwa", "TYPE": "GE", "TYPE_FULL": "Garderie  d'Enfants", "COMMUNE": "Brachoua", "U_R": "R", "DISTRICT": "centre", "LAT": 33.676064, "LON": -6.643715, "LATLON": "33.676064, -6.643715", "ADRESSE_FULL": "centre , had el brachwa", "ADRESSE": "had el brachwa", "PROPRIETARY_MJS": "N", "OUVERT_PUB": "O" }, "geometry": { "type": "Point", "coordinates": [ -6.643715, 33.676064 ] } },
{ "type": "Feature", "properties": { "PROVINCE": "Khemisset", "NAME": "roummani", "TYPE": "GE", "TYPE_FULL": "Garderie  d'Enfants", "COMMUNE": "Rommani", "U_R": "U", "DISTRICT": "quartier el amal", "LAT": 33.518863, "LON": -6.601622, "LATLON": "33.518863, -6.601622", "ADRESSE_FULL": "quartier el amal", "ADRESSE": null, "PROPRIETARY_MJS": "N", "OUVERT_PUB": "O" }, "geometry": { "type": "Point", "coordinates": [ -6.601622, 33.518863 ] } },
{ "type": "Feature", "properties": { "PROVINCE": "Khemisset", "NAME": "el ganzra", "TYPE": "GE", "TYPE_FULL": "Garderie  d'Enfants", "COMMUNE": "El Ganzra", "U_R": "R", "DISTRICT": "centre", "LAT": 34.0406, "LON": -5.9257, "LATLON": "34.0406,-5.9257", "ADRESSE_FULL": "centre , el ganzra centre", "ADRESSE": "el ganzra centre", "PROPRIETARY_MJS": "N", "OUVERT_PUB": "O" }, "geometry": { "type": "Point", "coordinates": [ -5.9257, 34.0406 ] } },
{ "type": "Feature", "properties": { "PROVINCE": "Khemisset", "NAME": "locale", "TYPE": "GE", "TYPE_FULL": "Garderie  d'Enfants", "COMMUNE": "Khemisset", "U_R": "U", "DISTRICT": null, "LAT": 33.8328, "LON": -6.0734, "LATLON": "33.8328,-6.0734", "ADRESSE_FULL": "rue la bataille de badr", "ADRESSE": "rue la bataille de badr", "PROPRIETARY_MJS": "O", "OUVERT_PUB": "O" }, "geometry": { "type": "Point", "coordinates": [ -6.0734, 33.8328 ] } },
{ "type": "Feature", "properties": { "PROVINCE": "Khemisset", "NAME": "el ghandour", "TYPE": "GE", "TYPE_FULL": "Garderie  d'Enfants", "COMMUNE": "Khemisset", "U_R": "R", "DISTRICT": "centre", "LAT": 33.8274, "LON": -6.0811, "LATLON": "33.8274,-6.0811", "ADRESSE_FULL": "centre , sidi el ghandour", "ADRESSE": "sidi el ghandour", "PROPRIETARY_MJS": "N", "OUVERT_PUB": "O" }, "geometry": { "type": "Point", "coordinates": [ -6.0811, 33.8274 ] } },
{ "type": "Feature", "properties": { "PROVINCE": "Khemisset", "NAME": "oulmes", "TYPE": "GE", "TYPE_FULL": "Garderie  d'Enfants", "COMMUNE": "Oulmes", "U_R": "R", "DISTRICT": "centre", "LAT": 33.427793, "LON": -6.014113, "LATLON": "33.427793, -6.014113", "ADRESSE_FULL": "centre , oulmes center", "ADRESSE": "oulmes center", "PROPRIETARY_MJS": "N", "OUVERT_PUB": "O" }, "geometry": { "type": "Point", "coordinates": [ -6.014113, 33.427793 ] } },
{ "type": "Feature", "properties": { "PROVINCE": "Khemisset", "NAME": "maaziz", "TYPE": "GE", "TYPE_FULL": "Garderie  d'Enfants", "COMMUNE": "Maaziz", "U_R": "R", "DISTRICT": "centre", "LAT": 33.666736, "LON": -6.324209, "LATLON": "33.666736, -6.324209", "ADRESSE_FULL": "centre , quartier administratif", "ADRESSE": "quartier administratif", "PROPRIETARY_MJS": "O", "OUVERT_PUB": "O" }, "geometry": { "type": "Point", "coordinates": [ -6.324209, 33.666736 ] } },
{ "type": "Feature", "properties": { "PROVINCE": "Khemisset", "NAME": "sidi allal el bahraoui", "TYPE": "GE", "TYPE_FULL": "Garderie  d'Enfants", "COMMUNE": "Sidi Allal El Bahraoui", "U_R": null, "DISTRICT": "sidi allal el bahraoui", "LAT": 33.990464, "LON": -6.521673, "LATLON": "33.990464, -6.521673", "ADRESSE_FULL": "sidi allal el bahraoui , sidi allal el bahraoui centre", "ADRESSE": "sidi allal el bahraoui centre", "PROPRIETARY_MJS": "N", "OUVERT_PUB": "N" }, "geometry": { "type": "Point", "coordinates": [ -6.521673, 33.990464 ] } },
{ "type": "Feature", "properties": { "PROVINCE": "Khemisset", "NAME": "provincial", "TYPE": "CFP", "TYPE_FULL": "Centre  de  Formation Proféssionelle", "COMMUNE": "Khemisset", "U_R": "U", "DISTRICT": "essalam", "LAT": 33.846529, "LON": -6.072097, "LATLON": "33.846529, -6.072097", "ADRESSE_FULL": "essalam , rue driss harti", "ADRESSE": "rue driss harti", "PROPRIETARY_MJS": "O", "OUVERT_PUB": "O" }, "geometry": { "type": "Point", "coordinates": [ -6.072097, 33.846529 ] } },
{ "type": "Feature", "properties": { "PROVINCE": "Khemisset", "NAME": "central", "TYPE": "GE", "TYPE_FULL": "Garderie  d'Enfants", "COMMUNE": "Tiflet", "U_R": "U", "DISTRICT": "el farah", "LAT": 33.889938, "LON": -6.311149, "LATLON": "33.889938, -6.311149", "ADRESSE_FULL": "el farah , 66 rue maaziz", "ADRESSE": "66 rue maaziz", "PROPRIETARY_MJS": "N", "OUVERT_PUB": "O" }, "geometry": { "type": "Point", "coordinates": [ -6.311149, 33.889938 ] } },
{ "type": "Feature", "properties": { "PROVINCE": "Khemisset", "NAME": "ait yadine ", "TYPE": "GE", "TYPE_FULL": "Garderie  d'Enfants", "COMMUNE": "Ait Yadine", "U_R": "R", "DISTRICT": "centre", "LAT": 33.958068, "LON": -6.010753, "LATLON": "33.958068, -6.010753", "ADRESSE_FULL": "centre , ait yadine centre", "ADRESSE": "ait yadine centre", "PROPRIETARY_MJS": "N", "OUVERT_PUB": "O" }, "geometry": { "type": "Point", "coordinates": [ -6.010753, 33.958068 ] } },
{ "type": "Feature", "properties": { "PROVINCE": "Khemisset", "NAME": "tidass", "TYPE": "FF", "TYPE_FULL": "Foyer Féminin", "COMMUNE": "Tiddas", "U_R": "R", "DISTRICT": "centre", "LAT": 33.5664, "LON": -6.2639, "LATLON": "33.5664,-6.2639", "ADRESSE_FULL": "centre , tidass centre", "ADRESSE": "tidass centre", "PROPRIETARY_MJS": "N", "OUVERT_PUB": "N" }, "geometry": { "type": "Point", "coordinates": [ -6.2639, 33.5664 ] } },
{ "type": "Feature", "properties": { "PROVINCE": "Khemisset", "NAME": "ait ikou", "TYPE": "FF", "TYPE_FULL": "Foyer Féminin", "COMMUNE": "Ait Ichou", "U_R": "R", "DISTRICT": "centre", "LAT": 33.555289, "LON": -6.052325, "LATLON": "33.555289, -6.052325", "ADRESSE_FULL": "centre , ait ikou centre", "ADRESSE": "ait ikou centre", "PROPRIETARY_MJS": "N", "OUVERT_PUB": "N" }, "geometry": { "type": "Point", "coordinates": [ -6.052325, 33.555289 ] } },
{ "type": "Feature", "properties": { "PROVINCE": "Khemisset", "NAME": "Terrain 18 Novembre", "TYPE": "TGJG  ", "TYPE_FULL": "Terrain Grand Jeu - Gazonné ", "COMMUNE": "Khemisset", "U_R": "U", "DISTRICT": "Q,Serghini", "LAT": 33.8465, "LON": -6.0756, "LATLON": "33.8465,-6.0756", "ADRESSE_FULL": "Q,Serghini , BD,ibn Sina", "ADRESSE": "BD,ibn Sina", "PROPRIETARY_MJS": "O", "OUVERT_PUB": "O " }, "geometry": { "type": "Point", "coordinates": [ -6.0756, 33.8465 ] } },
{ "type": "Feature", "properties": { "PROVINCE": "Khemisset", "NAME": "Piste d'Athlétisme", "TYPE": "PA", "TYPE_FULL": "Piste d'Athlétisme", "COMMUNE": "Khemisset", "U_R": "U", "DISTRICT": "Q,Serghini", "LAT": 33.8447, "LON": -6.07, "LATLON": "33.8447,-6.0700", "ADRESSE_FULL": "Q,Serghini , BD,ibn Sina", "ADRESSE": "BD,ibn Sina", "PROPRIETARY_MJS": "O", "OUVERT_PUB": "O" }, "geometry": { "type": "Point", "coordinates": [ -6.07, 33.8447 ] } },
{ "type": "Feature", "properties": { "PROVINCE": "Khemisset", "NAME": "Terrain 20 Aout", "TYPE": "TGJG", "TYPE_FULL": "Terrain Grand Jeu - Gazonné ", "COMMUNE": "khemisset", "U_R": "U", "DISTRICT": "Q,Serghini", "LAT": 33.8363, "LON": -6.0609, "LATLON": "33.8363,-6.0609", "ADRESSE_FULL": "Q,Serghini , BD,ibn Sina", "ADRESSE": "BD,ibn Sina", "PROPRIETARY_MJS": "N", "OUVERT_PUB": "O" }, "geometry": { "type": "Point", "coordinates": [ -6.0609, 33.8363 ] } },
{ "type": "Feature", "properties": { "PROVINCE": "Khemisset", "NAME": "Terrain de Maamoura", "TYPE": "TGJNG", "TYPE_FULL": "Terrain Grand Jeu - Non Gazonné ", "COMMUNE": "khemisset", "U_R": "U", "DISTRICT": "Q,Maamoura", "LAT": 33.8297, "LON": -6.0531, "LATLON": "33.8297,-6.0531", "ADRESSE_FULL": "Q,Maamoura", "ADRESSE": null, "PROPRIETARY_MJS": "N", "OUVERT_PUB": "N" }, "geometry": { "type": "Point", "coordinates": [ -6.0531, 33.8297 ] } },
{ "type": "Feature", "properties": { "PROVINCE": "Khemisset", "NAME": "Salle Couverte Zerctouni", "TYPE": "SC", "TYPE_FULL": "Salle Couverte", "COMMUNE": "khemisset", "U_R": "U", "DISTRICT": "Q,Etaqadoum", "LAT": 33.8435, "LON": -6.0834, "LATLON": "33.8435,-6.0834", "ADRESSE_FULL": "Q,Etaqadoum", "ADRESSE": null, "PROPRIETARY_MJS": "O", "OUVERT_PUB": "O" }, "geometry": { "type": "Point", "coordinates": [ -6.0834, 33.8435 ] } },
{ "type": "Feature", "properties": { "PROVINCE": "Khemisset", "NAME": "Salle Couverte Omni Sport", "TYPE": "SC", "TYPE_FULL": "Salle Couverte", "COMMUNE": "khemisset", "U_R": "U", "DISTRICT": "BD,Ibn Sina", "LAT": 33.8231, "LON": -6.0804, "LATLON": "33.8231,-6.0804", "ADRESSE_FULL": "BD,Ibn Sina , Parc 3 Mars", "ADRESSE": "Parc 3 Mars", "PROPRIETARY_MJS": "O", "OUVERT_PUB": "O" }, "geometry": { "type": "Point", "coordinates": [ -6.0804, 33.8231 ] } },
{ "type": "Feature", "properties": { "PROVINCE": "Khemisset", "NAME": "Court de Tennis", "TYPE": "CT", "TYPE_FULL": "Court de  Tennis", "COMMUNE": "khemisset", "U_R": "U", "DISTRICT": "Q,Administratif", "LAT": 33.8278, "LON": -6.0727, "LATLON": "33.8278,-6.0727", "ADRESSE_FULL": "Q,Administratif", "ADRESSE": null, "PROPRIETARY_MJS": "N", "OUVERT_PUB": "O" }, "geometry": { "type": "Point", "coordinates": [ -6.0727, 33.8278 ] } },
{ "type": "Feature", "properties": { "PROVINCE": "Khemisset", "NAME": "Piscine Ouverte  ", "TYPE": "PO", "TYPE_FULL": "Piscine Olympique ", "COMMUNE": "Khemisset", "U_R": "U", "DISTRICT": "BD,Ibn Sina", "LAT": 33.8124, "LON": -6.0634, "LATLON": "33.8124,-6.0634", "ADRESSE_FULL": "BD,Ibn Sina", "ADRESSE": null, "PROPRIETARY_MJS": "N", "OUVERT_PUB": "N" }, "geometry": { "type": "Point", "coordinates": [ -6.0634, 33.8124 ] } },
{ "type": "Feature", "properties": { "PROVINCE": "Khemisset", "NAME": "Piscine Coplexe Olympique", "TYPE": "POO", "TYPE_FULL": "Piscine Ouverte Olympique ", "COMMUNE": "Khemisset", "U_R": "U", "DISTRICT": "Q,Administratif", "LAT": 33.8219, "LON": -6.0682, "LATLON": "33.8219,-6.0682", "ADRESSE_FULL": "Q,Administratif", "ADRESSE": null, "PROPRIETARY_MJS": "N", "OUVERT_PUB": "O" }, "geometry": { "type": "Point", "coordinates": [ -6.0682, 33.8219 ] } },
{ "type": "Feature", "properties": { "PROVINCE": "Khemisset", "NAME": "Terrain Omnisport ", "TYPE": "TO", "TYPE_FULL": "Terrain Omnisport", "COMMUNE": "Khemisset", "U_R": "U", "DISTRICT": "Hay  Essalam", "LAT": 33.8444, "LON": -6.077, "LATLON": "33.8444,-6.0770", "ADRESSE_FULL": "Hay  Essalam", "ADRESSE": null, "PROPRIETARY_MJS": "N", "OUVERT_PUB": "O" }, "geometry": { "type": "Point", "coordinates": [ -6.077, 33.8444 ] } },
{ "type": "Feature", "properties": { "PROVINCE": "Khemisset", "NAME": "Centre Socio Sportif de Proximité Intégré", "TYPE": "CSPI", "TYPE_FULL": " Centre  Socio Sportif de  Proximité Intégré ", "COMMUNE": "Khemisset", "U_R": "U", "DISTRICT": "Hay Yassmine 4", "LAT": 33.834, "LON": -6.0755, "LATLON": "33.8340,-6.0755", "ADRESSE_FULL": "Hay Yassmine 4 , Cité Yassmine", "ADRESSE": "Cité Yassmine", "PROPRIETARY_MJS": "O", "OUVERT_PUB": "N" }, "geometry": { "type": "Point", "coordinates": [ -6.0755, 33.834 ] } },
{ "type": "Feature", "properties": { "PROVINCE": "Khemisset", "NAME": "Centre Socio Sportif de Proximité Intégré", "TYPE": "CSPI", "TYPE_FULL": " Centre  Socio Sportif de  Proximité Intégré ", "COMMUNE": "Sidi Allal Lamsadder", "U_R": "R", "DISTRICT": "S A Msader ", "LAT": 33.8719, "LON": -6.1529, "LATLON": "33.8719,-6.1529", "ADRESSE_FULL": "S A Msader ", "ADRESSE": null, "PROPRIETARY_MJS": "N", "OUVERT_PUB": "N" }, "geometry": { "type": "Point", "coordinates": [ -6.1529, 33.8719 ] } },
{ "type": "Feature", "properties": { "PROVINCE": "Khemisset", "NAME": "Terrain de Basket Ball", "TYPE": "TPJNG", "TYPE_FULL": "Terrain Petit Jeu - Non Gazonné ", "COMMUNE": "Ait Mimoune", "U_R": "R", "DISTRICT": "Ait Mimoune", "LAT": 33.68748, "LON": -5.786848, "LATLON": "33.687480, -5.786848", "ADRESSE_FULL": "Ait Mimoune", "ADRESSE": null, "PROPRIETARY_MJS": "N", "OUVERT_PUB": "O" }, "geometry": { "type": "Point", "coordinates": [ -5.786848, 33.68748 ] } },
{ "type": "Feature", "properties": { "PROVINCE": "Khemisset", "NAME": "Terrain Petit Jeu - Non Gazonné", "TYPE": "TPJNG", "TYPE_FULL": "Terrain Petit Jeu - Non Gazonné ", "COMMUNE": "M'Qam Tolba", "U_R": "R", "DISTRICT": "Mqam Tolba", "LAT": 33.928262, "LON": -6.246667, "LATLON": "33.928262, -6.246667", "ADRESSE_FULL": "Mqam Tolba", "ADRESSE": null, "PROPRIETARY_MJS": "N", "OUVERT_PUB": "N" }, "geometry": { "type": "Point", "coordinates": [ -6.246667, 33.928262 ] } },
{ "type": "Feature", "properties": { "PROVINCE": "Khemisset", "NAME": "Terrain Petit Jeu - Non Gazonné", "TYPE": "TPJNG", "TYPE_FULL": "Terrain Petit Jeu - Non Gazonné ", "COMMUNE": "Khemis Sidi Yahya", "U_R": "R", "DISTRICT": "Khmis Sidi Hya", "LAT": 33.797216, "LON": -6.262432, "LATLON": "33.797216, -6.262432", "ADRESSE_FULL": "Khmis Sidi Hya", "ADRESSE": null, "PROPRIETARY_MJS": "N", "OUVERT_PUB": "N" }, "geometry": { "type": "Point", "coordinates": [ -6.262432, 33.797216 ] } },
{ "type": "Feature", "properties": { "PROVINCE": "Khemisset", "NAME": "Terrain Grand Jeu - Non Gazonné", "TYPE": "TGJNG", "TYPE_FULL": "Terrain Grand Jeu - Non Gazonné ", "COMMUNE": "Houderrane", "U_R": "R", "DISTRICT": "Houdrane", "LAT": 33.713487, "LON": -6.265709, "LATLON": "33.713487, -6.265709", "ADRESSE_FULL": "Houdrane", "ADRESSE": null, "PROPRIETARY_MJS": "N", "OUVERT_PUB": "N" }, "geometry": { "type": "Point", "coordinates": [ -6.265709, 33.713487 ] } },
{ "type": "Feature", "properties": { "PROVINCE": "Khemisset", "NAME": "Terrain de Football", "TYPE": "TGJNG", "TYPE_FULL": "Terrain Grand Jeu - Non Gazonné ", "COMMUNE": "Ait Yadine", "U_R": "R", "DISTRICT": "Ait Yadine Centre", "LAT": 33.9969, "LON": -6.0564, "LATLON": "33.9969,-6.0564", "ADRESSE_FULL": "Ait Yadine Centre", "ADRESSE": null, "PROPRIETARY_MJS": "N", "OUVERT_PUB": "O" }, "geometry": { "type": "Point", "coordinates": [ -6.0564, 33.9969 ] } },
{ "type": "Feature", "properties": { "PROVINCE": "Khemisset", "NAME": "Terrain 20 Aout", "TYPE": "TGJNG", "TYPE_FULL": "Terrain Grand Jeu - Non Gazonné ", "COMMUNE": "Tiflet", "U_R": "U", "DISTRICT": "BD,Marche Verte", "LAT": 33.893765, "LON": -6.353634, "LATLON": "33.893765, -6.353634", "ADRESSE_FULL": "BD,Marche Verte , Tifelt Centre", "ADRESSE": "Tifelt Centre", "PROPRIETARY_MJS": "N", "OUVERT_PUB": "O" }, "geometry": { "type": "Point", "coordinates": [ -6.353634, 33.893765 ] } },
{ "type": "Feature", "properties": { "PROVINCE": "Khemisset", "NAME": "Terrain Petit Jeu - Non Gazonné  ", "TYPE": "TPJNG", "TYPE_FULL": "Terrain Petit Jeu - Non Gazonné ", "COMMUNE": "Tiflet", "U_R": "U", "DISTRICT": "BD,Marche Verte", "LAT": 33.891852, "LON": -6.340789, "LATLON": "33.891852, -6.340789", "ADRESSE_FULL": "BD,Marche Verte , MJ 9 juillet", "ADRESSE": "MJ 9 juillet", "PROPRIETARY_MJS": "O", "OUVERT_PUB": "N" }, "geometry": { "type": "Point", "coordinates": [ -6.340789, 33.891852 ] } },
{ "type": "Feature", "properties": { "PROVINCE": "Khemisset", "NAME": "Centre Socio Sportif de Proximité Intégré (CSPI )", "TYPE": "CSPI", "TYPE_FULL": " Centre  Socio Sportif de  Proximité Intégré ", "COMMUNE": "Tiflet", "U_R": "U", "DISTRICT": "Q,Hay Essalam", "LAT": 33.913173, "LON": -6.349352, "LATLON": "33.913173, -6.349352", "ADRESSE_FULL": "Q,Hay Essalam , Said belqoula", "ADRESSE": "Said belqoula", "PROPRIETARY_MJS": "O", "OUVERT_PUB": "O" }, "geometry": { "type": "Point", "coordinates": [ -6.349352, 33.913173 ] } },
{ "type": "Feature", "properties": { "PROVINCE": "Khemisset", "NAME": "Piste d'Athlétisme", "TYPE": "PA", "TYPE_FULL": "Piste d'Athlétisme", "COMMUNE": "Tiflet", "U_R": "U", "DISTRICT": "Q,Dalia", "LAT": 33.904973, "LON": -6.296, "LATLON": "33.904973, -6.296000", "ADRESSE_FULL": "Q,Dalia", "ADRESSE": null, "PROPRIETARY_MJS": "N", "OUVERT_PUB": "O" }, "geometry": { "type": "Point", "coordinates": [ -6.296, 33.904973 ] } },
{ "type": "Feature", "properties": { "PROVINCE": "Khemisset", "NAME": "Terrain Urbaine Foot", "TYPE": "TPJG", "TYPE_FULL": "Terrain Grand Jeu - Gazonné ", "COMMUNE": "Tiflet", "U_R": "U", "DISTRICT": "Q,Andalousse", "LAT": 33.851929, "LON": -6.34293, "LATLON": "33.851929, -6.342930", "ADRESSE_FULL": "Q,Andalousse , BD,Med 5", "ADRESSE": "BD,Med 5", "PROPRIETARY_MJS": "N", "OUVERT_PUB": "O" }, "geometry": { "type": "Point", "coordinates": [ -6.34293, 33.851929 ] } },
{ "type": "Feature", "properties": { "PROVINCE": "Khemisset", "NAME": "Centre Socio Sportif de Proximité Intégr ( CSPI )", "TYPE": "CSPI", "TYPE_FULL": " Centre  Socio Sportif de  Proximité Intégré ", "COMMUNE": "Tiflet", "U_R": "R", "DISTRICT": "Sidi abderazak", "LAT": 33.900053, "LON": -6.357586, "LATLON": "33.900053, -6.357586", "ADRESSE_FULL": "Sidi abderazak , S,A,R, Centre", "ADRESSE": "S,A,R, Centre", "PROPRIETARY_MJS": "O", "OUVERT_PUB": "N" }, "geometry": { "type": "Point", "coordinates": [ -6.357586, 33.900053 ] } },
{ "type": "Feature", "properties": { "PROVINCE": "Khemisset", "NAME": "Terrain de Football", "TYPE": "TGJNG", "TYPE_FULL": "Terrain Grand Jeu - Non Gazonné ", "COMMUNE": "Tiflet", "U_R": "R", "DISTRICT": "Sidi abderazak", "LAT": 33.92916, "LON": -6.356268, "LATLON": "33.929160, -6.356268", "ADRESSE_FULL": "Sidi abderazak , S,A,R, Centre", "ADRESSE": "S,A,R, Centre", "PROPRIETARY_MJS": "N", "OUVERT_PUB": "N" }, "geometry": { "type": "Point", "coordinates": [ -6.356268, 33.92916 ] } },
{ "type": "Feature", "properties": { "PROVINCE": "Khemisset", "NAME": "Piste d'Athlétisme", "TYPE": "PA", "TYPE_FULL": "Piste d'Athlétisme", "COMMUNE": "Tiflet", "U_R": "R", "DISTRICT": "Sidi abderazak", "LAT": 33.878865, "LON": -6.285296, "LATLON": "33.878865, -6.285296", "ADRESSE_FULL": "Sidi abderazak , S,A,R, Centre", "ADRESSE": "S,A,R, Centre", "PROPRIETARY_MJS": "N", "OUVERT_PUB": "N" }, "geometry": { "type": "Point", "coordinates": [ -6.285296, 33.878865 ] } },
{ "type": "Feature", "properties": { "PROVINCE": "Khemisset", "NAME": "Terrain de football", "TYPE": "TGJNG", "TYPE_FULL": "Terrain Grand Jeu - Non Gazonné ", "COMMUNE": "Tiflet", "U_R": "R", "DISTRICT": "Sidi Allal Bahraoui", "LAT": 33.932439, "LON": -6.384097, "LATLON": "33.932439, -6.384097", "ADRESSE_FULL": "Sidi Allal Bahraoui", "ADRESSE": null, "PROPRIETARY_MJS": "N", "OUVERT_PUB": "N" }, "geometry": { "type": "Point", "coordinates": [ -6.384097, 33.932439 ] } },
{ "type": "Feature", "properties": { "PROVINCE": "khemisset", "NAME": "Centre Socio Sportif de Proximité Intégr", "TYPE": "CSPI", "TYPE_FULL": " Centre  Socio Sportif de  Proximité Intégré ", "COMMUNE": "Tiflet", "U_R": "R", "DISTRICT": "Sidi Allal Bahraoui", "LAT": 33.933122, "LON": -6.360879, "LATLON": "33.933122, -6.360879", "ADRESSE_FULL": "Sidi Allal Bahraoui", "ADRESSE": null, "PROPRIETARY_MJS": "N", "OUVERT_PUB": "N" }, "geometry": { "type": "Point", "coordinates": [ -6.360879, 33.933122 ] } },
{ "type": "Feature", "properties": { "PROVINCE": "Khemisset", "NAME": "Terrain Petit Jeu - Non Gazonné  ( TPJNG )", "TYPE": "TPJNG", "TYPE_FULL": "Terrain Petit Jeu - Non Gazonné ", "COMMUNE": "Tiflet", "U_R": "R", "DISTRICT": "Sidi Allal Bahraoui", "LAT": 33.891896, "LON": -6.336603, "LATLON": "33.891896, -6.336603", "ADRESSE_FULL": "Sidi Allal Bahraoui , MJ S,A,B", "ADRESSE": "MJ S,A,B", "PROPRIETARY_MJS": "N", "OUVERT_PUB": "N" }, "geometry": { "type": "Point", "coordinates": [ -6.336603, 33.891896 ] } },
{ "type": "Feature", "properties": { "PROVINCE": "Khemisset", "NAME": "Terrain de football ", "TYPE": "TGJNG  ", "TYPE_FULL": "Terrain Petit Jeu - Non Gazonné ", "COMMUNE": "Rommani", "U_R": "U", "DISTRICT": "champs de course", "LAT": 33.5213, "LON": -6.6143, "LATLON": "33.5213,-6.6143", "ADRESSE_FULL": "champs de course", "ADRESSE": null, "PROPRIETARY_MJS": "N", "OUVERT_PUB": "O" }, "geometry": { "type": "Point", "coordinates": [ -6.6143, 33.5213 ] } },
{ "type": "Feature", "properties": { "PROVINCE": "Khemisset", "NAME": "Terrain Petit Jeu - Non Gazonné ", "TYPE": "TPJNG", "TYPE_FULL": "Terrain Petit Jeu - Non Gazonné ", "COMMUNE": "Rommani", "U_R": "U", "DISTRICT": "Rommani Centre ( MJ rommani )", "LAT": 33.5298, "LON": -6.6161, "LATLON": "33.5298,-6.6161", "ADRESSE_FULL": "Rommani Centre ( MJ rommani )", "ADRESSE": null, "PROPRIETARY_MJS": "O", "OUVERT_PUB": "N" }, "geometry": { "type": "Point", "coordinates": [ -6.6161, 33.5298 ] } },
{ "type": "Feature", "properties": { "PROVINCE": "Khemisset", "NAME": "Terrain Petit Jeu - Non Gazonné ", "TYPE": "TPJNG", "TYPE_FULL": "Terrain Petit Jeu - Non Gazonné ", "COMMUNE": "Rommani", "U_R": "U", "DISTRICT": "Alamal", "LAT": 33.5385, "LON": -6.604, "LATLON": "33.5385,-6.6040", "ADRESSE_FULL": "Alamal", "ADRESSE": null, "PROPRIETARY_MJS": "O", "OUVERT_PUB": "N" }, "geometry": { "type": "Point", "coordinates": [ -6.604, 33.5385 ] } },
{ "type": "Feature", "properties": { "PROVINCE": "Khemisset", "NAME": "Terrain Petit Jeu - Non Gazonné  ( TPJNG )", "TYPE": "TPJNG", "TYPE_FULL": "Terrain Petit Jeu - Non Gazonné ", "COMMUNE": "Rommani", "U_R": "U", "DISTRICT": "Nahda", "LAT": 33.5344, "LON": -6.5996, "LATLON": "33.5344,-6.5996", "ADRESSE_FULL": "Nahda", "ADRESSE": null, "PROPRIETARY_MJS": "O", "OUVERT_PUB": "N" }, "geometry": { "type": "Point", "coordinates": [ -6.5996, 33.5344 ] } },
{ "type": "Feature", "properties": { "PROVINCE": "Khemisset", "NAME": "Piscine Ouverte  ", "TYPE": "PO", "TYPE_FULL": "Piscine Olympique ", "COMMUNE": "Rommani", "U_R": "U", "DISTRICT": "Rommani Centre ", "LAT": 33.5299, "LON": -6.6058, "LATLON": "33.5299,-6.6058", "ADRESSE_FULL": "Rommani Centre ", "ADRESSE": null, "PROPRIETARY_MJS": "N", "OUVERT_PUB": "N" }, "geometry": { "type": "Point", "coordinates": [ -6.6058, 33.5299 ] } },
{ "type": "Feature", "properties": { "PROVINCE": "Khemisset", "NAME": "Terrain de Oulmes ", "TYPE": "TGJG  ", "TYPE_FULL": "Terrain Grand Jeu - Gazonné ", "COMMUNE": "Oulmes", "U_R": "U", "DISTRICT": "Oulmes Centre", "LAT": 33.421359, "LON": -6.000982, "LATLON": "33.421359, -6.000982", "ADRESSE_FULL": "Oulmes Centre", "ADRESSE": null, "PROPRIETARY_MJS": "N", "OUVERT_PUB": "O" }, "geometry": { "type": "Point", "coordinates": [ -6.000982, 33.421359 ] } },
{ "type": "Feature", "properties": { "PROVINCE": "Khemisset", "NAME": "Piste d'Athlétisme", "TYPE": "PA", "TYPE_FULL": "Piste d'Athlétisme", "COMMUNE": "Oulmes", "U_R": "U", "DISTRICT": "Oulmes Centre", "LAT": 33.425822, "LON": -5.998467, "LATLON": "33.425822, -5.998467", "ADRESSE_FULL": "Oulmes Centre", "ADRESSE": null, "PROPRIETARY_MJS": "N", "OUVERT_PUB": "O" }, "geometry": { "type": "Point", "coordinates": [ -5.998467, 33.425822 ] } },
{ "type": "Feature", "properties": { "PROVINCE": "Khemisset", "NAME": "Centre Socio Sportif de Proximité Intégré (CSPI )", "TYPE": "CSPI", "TYPE_FULL": " Centre  Socio Sportif de  Proximité Intégré ", "COMMUNE": "Oulmes", "U_R": "U", "DISTRICT": "Oulmes Centre", "LAT": 33.437686, "LON": -6.001443, "LATLON": "33.437686, -6.001443", "ADRESSE_FULL": "Oulmes Centre", "ADRESSE": null, "PROPRIETARY_MJS": "N", "OUVERT_PUB": "N" }, "geometry": { "type": "Point", "coordinates": [ -6.001443, 33.437686 ] } },
{ "type": "Feature", "properties": { "PROVINCE": "Khemisset", "NAME": "Terrain Urbaine Foot", "TYPE": "TPJNG", "TYPE_FULL": "Terrain Petit Jeu - Non Gazonné ", "COMMUNE": "Oulmes", "U_R": "U", "DISTRICT": "Oulmes Centre", "LAT": 33.425893, "LON": -6.012123, "LATLON": "33.425893, -6.012123", "ADRESSE_FULL": "Oulmes Centre", "ADRESSE": null, "PROPRIETARY_MJS": "N", "OUVERT_PUB": "O" }, "geometry": { "type": "Point", "coordinates": [ -6.012123, 33.425893 ] } },
{ "type": "Feature", "properties": { "PROVINCE": "Khemisset", "NAME": "Terrain  de Football", "TYPE": "TGJNG", "TYPE_FULL": "Terrain Grand Jeu - Non Gazonné ", "COMMUNE": "Oulmes", "U_R": "R", "DISTRICT": "Tiddass ", "LAT": 33.439126, "LON": -6.005734, "LATLON": "33.439126, -6.005734", "ADRESSE_FULL": "Tiddass ", "ADRESSE": null, "PROPRIETARY_MJS": "N", "OUVERT_PUB": "O" }, "geometry": { "type": "Point", "coordinates": [ -6.005734, 33.439126 ] } }
]
}
